$GNRMC,000549.00,A,1309.34260,N,07518.26518,E,0.974,,081218,,,A*65
$GNRMC,000550.00,A,1309.34439,N,07518.26409,E,0.307,,081218,,,A*68
$GNRMC,000551.00,A,1309.34429,N,07518.26479,E,1.538,,081218,,,A*64
$GNRMC,000552.00,A,1309.34584,N,07518.26430,E,1.018,,081218,,,A*6B
$GNRMC,000553.00,A,1309.34616,N,07518.26435,E,1.103,,081218,,,A*6C
$GNRMC,000554.00,A,1309.34585,N,07518.26311,E,2.352,,081218,,,A*66
$GNRMC,000555.00,A,1309.34539,N,07518.26316,E,0.767,,081218,,,A*67
$GNRMC,000556.00,A,1309.34544,N,07518.26306,E,0.114,,081218,,,A*6D
$GNRMC,000557.00,A,1309.34527,N,07518.26311,E,0.748,,081218,,,A*60
$GNRMC,000558.00,A,1309.34503,N,07518.26311,E,0.372,,081218,,,A*64
$GNRMC,000559.00,A,1309.34508,N,07518.26263,E,1.048,,081218,,,A*61
$GNRMC,000600.00,A,1309.34483,N,07518.26204,E,1.760,,081218,,,A*60
$GNRMC,000601.00,A,1309.34479,N,07518.26175,E,1.424,,081218,,,A*62
$GNRMC,000602.00,A,1309.34445,N,07518.26222,E,0.155,,081218,,,A*6D
$GNRMC,000603.00,A,1309.34447,N,07518.26220,E,0.081,,081218,,,A*64
$GNRMC,000604.00,A,1309.34492,N,07518.26176,E,0.165,,081218,,,A*60
$GNRMC,000605.00,A,1309.34530,N,07518.26093,E,0.176,,081218,,,A*60
$GNRMC,000606.00,A,1309.34539,N,07518.26079,E,0.123,,081218,,,A*6E
$GNRMC,000607.00,A,1309.34553,N,07518.26060,E,0.092,,081218,,,A*60
$GNRMC,000608.00,A,1309.34593,N,07518.26055,E,0.162,,081218,,,A*6B
$GNRMC,000609.00,A,1309.34611,N,07518.26039,E,0.188,,081218,,,A*6D
$GNRMC,000610.00,A,1309.34623,N,07518.26023,E,0.157,,081218,,,A*6D
$GNRMC,000611.00,A,1309.34657,N,07518.26022,E,0.374,,081218,,,A*6D
$GNRMC,000612.00,A,1309.34680,N,07518.26009,E,0.188,,081218,,,A*6C
$GNRMC,000613.00,A,1309.34692,N,07518.25993,E,0.214,,081218,,,A*61
$GNRMC,000614.00,A,1309.34707,N,07518.25995,E,0.217,,081218,,,A*6E
$GNRMC,000615.00,A,1309.34738,N,07518.25999,E,0.153,,081218,,,A*6C
$GNRMC,000616.00,A,1309.34768,N,07518.26020,E,0.142,,081218,,,A*62
$GNRMC,000617.00,A,1309.34802,N,07518.26039,E,0.290,,081218,,,A*64
$GNRMC,000618.00,A,1309.34832,N,07518.26070,E,0.377,,081218,,,A*6D
$GNRMC,000619.00,A,1309.34860,N,07518.26074,E,0.410,,081218,,,A*69
$GNRMC,000620.00,A,1309.34869,N,07518.26073,E,0.419,,081218,,,A*64
$GNRMC,000621.00,A,1309.34867,N,07518.26074,E,0.155,,081218,,,A*61
$GNRMC,000622.00,A,1309.34857,N,07518.26067,E,0.211,,081218,,,A*60
$GNRMC,000623.00,A,1309.34873,N,07518.26059,E,0.250,,081218,,,A*6F
$GNRMC,000624.00,A,1309.34860,N,07518.26060,E,0.293,,081218,,,A*6F
$GNRMC,000625.00,A,1309.34850,N,07518.26067,E,0.197,,081218,,,A*6D
$GNRMC,000626.00,A,1309.34855,N,07518.26074,E,0.415,,081218,,,A*66
$GNRMC,000627.00,A,1309.34842,N,07518.26077,E,0.436,,081218,,,A*63
$GNRMC,000628.00,A,1309.34827,N,07518.26081,E,0.426,,081218,,,A*67
$GNRMC,000629.00,A,1309.34799,N,07518.26083,E,0.374,,081218,,,A*6E
$GNRMC,000630.00,A,1309.34779,N,07518.26081,E,0.247,,081218,,,A*6B
$GNRMC,000631.00,A,1309.34782,N,07518.26062,E,0.126,,081218,,,A*67
$GNRMC,000632.00,A,1309.34787,N,07518.26047,E,0.087,,081218,,,A*6C
$GNRMC,000633.00,A,1309.34787,N,07518.26042,E,0.122,,081218,,,A*66
$GNRMC,000634.00,A,1309.34782,N,07518.26038,E,0.072,,081218,,,A*6D
$GNRMC,000635.00,A,1309.34790,N,07518.26033,E,0.115,,081218,,,A*64
$GNRMC,000636.00,A,1309.34795,N,07518.26028,E,0.049,,081218,,,A*60
$GNRMC,000637.00,A,1309.34797,N,07518.26022,E,0.104,,081218,,,A*61
$GNRMC,000638.00,A,1309.34792,N,07518.26016,E,0.051,,081218,,,A*6D
$GNRMC,000639.00,A,1309.34788,N,07518.26011,E,0.018,,081218,,,A*6D
$GNRMC,000640.00,A,1309.34786,N,07518.26011,E,0.054,,081218,,,A*65
$GNRMC,000641.00,A,1309.34786,N,07518.26012,E,0.109,,081218,,,A*6E
$GNRMC,000642.00,A,1309.34784,N,07518.26010,E,0.277,,081218,,,A*67
$GNRMC,000643.00,A,1309.34778,N,07518.26009,E,0.270,,081218,,,A*6A
$GNRMC,000644.00,A,1309.34775,N,07518.26007,E,0.137,,081218,,,A*6E
$GNRMC,000645.00,A,1309.34770,N,07518.26002,E,0.058,,081218,,,A*67
$GNRMC,000646.00,A,1309.34764,N,07518.26003,E,0.153,,081218,,,A*6A
$GNRMC,000647.00,A,1309.34762,N,07518.26008,E,0.234,,081218,,,A*64
$GNRMC,000648.00,A,1309.34765,N,07518.26005,E,0.062,,081218,,,A*60
$GNRMC,000649.00,A,1309.34765,N,07518.26028,E,0.102,,081218,,,A*69
$GNRMC,000650.00,A,1309.34761,N,07518.26053,E,0.093,,081218,,,A*60
$GNRMC,000651.00,A,1309.34760,N,07518.26071,E,0.050,,081218,,,A*6F
$GNRMC,000652.00,A,1309.34766,N,07518.26108,E,0.092,,081218,,,A*6B
$GNRMC,000653.00,A,1309.34765,N,07518.26143,E,0.038,,081218,,,A*66
$GNRMC,000654.00,A,1309.34763,N,07518.26169,E,0.074,,081218,,,A*67
$GNRMC,000655.00,A,1309.34763,N,07518.26195,E,0.108,,081218,,,A*6F
$GNRMC,000656.00,A,1309.34762,N,07518.26215,E,0.156,,081218,,,A*6D
$GNRMC,000657.00,A,1309.34759,N,07518.26237,E,0.099,,081218,,,A*66
$GNRMC,000658.00,A,1309.34760,N,07518.26252,E,0.136,,081218,,,A*64
$GNRMC,000659.00,A,1309.34760,N,07518.26264,E,0.136,,081218,,,A*60
$GNRMC,000700.00,A,1309.34759,N,07518.26271,E,0.134,,081218,,,A*61
$GNRMC,000701.00,A,1309.34757,N,07518.26277,E,0.067,,081218,,,A*6F
$GNRMC,000702.00,A,1309.34755,N,07518.26281,E,0.086,,081218,,,A*68
$GNRMC,000703.00,A,1309.34755,N,07518.26284,E,0.043,,081218,,,A*65
$GNRMC,000704.00,A,1309.34752,N,07518.26288,E,0.040,,081218,,,A*6A
$GNRMC,000705.00,A,1309.34750,N,07518.26291,E,0.020,,081218,,,A*67
$GNRMC,000706.00,A,1309.34747,N,07518.26293,E,0.005,,081218,,,A*67
$GNRMC,000707.00,A,1309.34745,N,07518.26289,E,0.008,,081218,,,A*62
$GNRMC,000708.00,A,1309.34744,N,07518.26289,E,0.081,,081218,,,A*6D
$GNRMC,000709.00,A,1309.34743,N,07518.26289,E,0.163,,081218,,,A*66
$GNRMC,000710.00,A,1309.34741,N,07518.26288,E,0.084,,081218,,,A*65
$GNRMC,000711.00,A,1309.34739,N,07518.26289,E,0.067,,081218,,,A*67
$GNRMC,000712.00,A,1309.34738,N,07518.26285,E,0.033,,081218,,,A*68
$GNRMC,000713.00,A,1309.34735,N,07518.26283,E,0.046,,081218,,,A*60
$GNRMC,000714.00,A,1309.34732,N,07518.26280,E,0.131,,081218,,,A*62
$GNRMC,000715.00,A,1309.34730,N,07518.26280,E,0.017,,081218,,,A*64
$GNRMC,000716.00,A,1309.34728,N,07518.26283,E,0.100,,081218,,,A*6A
$GNRMC,000717.00,A,1309.34726,N,07518.26285,E,0.074,,081218,,,A*61
$GNRMC,000718.00,A,1309.34724,N,07518.26290,E,0.097,,081218,,,A*65
$GNRMC,000719.00,A,1309.34722,N,07518.26295,E,0.046,,081218,,,A*6B
$GNRMC,000720.00,A,1309.34721,N,07518.26297,E,0.036,,081218,,,A*67
$GNRMC,000721.00,A,1309.34718,N,07518.26301,E,0.041,,081218,,,A*62
$GNRMC,000722.00,A,1309.34716,N,07518.26303,E,0.020,,081218,,,A*6A
$GNRMC,000723.00,A,1309.34717,N,07518.26303,E,0.060,,081218,,,A*6E
$GNRMC,000724.00,A,1309.34720,N,07518.26292,E,0.057,,081218,,,A*60
$GNRMC,000725.00,A,1309.34722,N,07518.26286,E,0.036,,081218,,,A*61
$GNRMC,000726.00,A,1309.34721,N,07518.26278,E,0.044,,081218,,,A*65
$GNRMC,000727.00,A,1309.34717,N,07518.26278,E,0.161,,081218,,,A*67
$GNRMC,000728.00,A,1309.34712,N,07518.26281,E,0.087,,081218,,,A*62
$GNRMC,000729.00,A,1309.34710,N,07518.26286,E,0.044,,081218,,,A*69
$GNRMC,000730.00,A,1309.34711,N,07518.26298,E,0.037,,081218,,,A*6B
$GNRMC,000731.00,A,1309.34718,N,07518.26313,E,0.037,,081218,,,A*61
$GNRMC,000732.00,A,1309.34721,N,07518.26320,E,0.070,,081218,,,A*6B
$GNRMC,000733.00,A,1309.34723,N,07518.26322,E,0.048,,081218,,,A*61
$GNRMC,000734.00,A,1309.34724,N,07518.26328,E,0.060,,081218,,,A*61
$GNRMC,000735.00,A,1309.34725,N,07518.26325,E,0.028,,081218,,,A*60
$GNRMC,000736.00,A,1309.34736,N,07518.26331,E,0.036,,081218,,,A*6B
$GNRMC,000737.00,A,1309.34742,N,07518.26331,E,0.060,,081218,,,A*6A
$GNRMC,000738.00,A,1309.34748,N,07518.26337,E,0.132,,081218,,,A*6F
$GNRMC,000739.00,A,1309.34749,N,07518.26338,E,0.098,,081218,,,A*61
$GNRMC,000740.00,A,1309.34751,N,07518.26341,E,0.081,,081218,,,A*60
$GNRMC,000741.00,A,1309.34754,N,07518.26350,E,0.056,,081218,,,A*6E
$GNRMC,000742.00,A,1309.34755,N,07518.26360,E,0.052,,081218,,,A*6B
$GNRMC,000743.00,A,1309.34754,N,07518.26366,E,0.032,,081218,,,A*6B
$GNRMC,000744.00,A,1309.34752,N,07518.26370,E,0.066,,081218,,,A*6C
$GNRMC,000745.00,A,1309.34753,N,07518.26381,E,0.129,,081218,,,A*68
$GNRMC,000746.00,A,1309.34753,N,07518.26397,E,0.050,,081218,,,A*63
$GNRMC,000747.00,A,1309.34754,N,07518.26404,E,0.055,,081218,,,A*6D
$GNRMC,000748.00,A,1309.34755,N,07518.26406,E,0.018,,081218,,,A*68
$GNRMC,000749.00,A,1309.34755,N,07518.26407,E,0.047,,081218,,,A*62
$GNRMC,000750.00,A,1309.34756,N,07518.26411,E,0.044,,081218,,,A*6D
$GNRMC,000751.00,A,1309.34759,N,07518.26417,E,0.027,,081218,,,A*60
$GNRMC,000752.00,A,1309.34761,N,07518.26423,E,0.106,,081218,,,A*6D
$GNRMC,000753.00,A,1309.34762,N,07518.26429,E,0.046,,081218,,,A*60
$GNRMC,000754.00,A,1309.34763,N,07518.26428,E,0.020,,081218,,,A*67
$GNRMC,000755.00,A,1309.34763,N,07518.26430,E,0.117,,081218,,,A*6A
$GNRMC,000756.00,A,1309.34764,N,07518.26439,E,0.103,,081218,,,A*62
$GNRMC,000757.00,A,1309.34764,N,07518.26438,E,0.083,,081218,,,A*6B
$GNRMC,000758.00,A,1309.34765,N,07518.26444,E,0.050,,081218,,,A*60
$GNRMC,000759.00,A,1309.34765,N,07518.26444,E,0.005,,081218,,,A*61
$GNRMC,000800.00,A,1309.34766,N,07518.26447,E,0.059,,081218,,,A*6B
$GNRMC,000801.00,A,1309.34768,N,07518.26448,E,0.202,,081218,,,A*67
$GNRMC,000802.00,A,1309.34767,N,07518.26448,E,0.061,,081218,,,A*6C
$GNRMC,000803.00,A,1309.34767,N,07518.26444,E,0.079,,081218,,,A*68
$GNRMC,000804.00,A,1309.34766,N,07518.26437,E,0.066,,081218,,,A*64
$GNRMC,000805.00,A,1309.34763,N,07518.26429,E,0.019,,081218,,,A*67
$GNRMC,000806.00,A,1309.34759,N,07518.26424,E,0.045,,081218,,,A*69
$GNRMC,000807.00,A,1309.34757,N,07518.26422,E,0.104,,081218,,,A*64
$GNRMC,000808.00,A,1309.34756,N,07518.26420,E,0.030,,081218,,,A*6E
$GNRMC,000809.00,A,1309.34754,N,07518.26420,E,0.104,,081218,,,A*6B
$GNRMC,000810.00,A,1309.34754,N,07518.26420,E,0.035,,081218,,,A*60
$GNRMC,000811.00,A,1309.34754,N,07518.26417,E,0.057,,081218,,,A*61
$GNRMC,000812.00,A,1309.34752,N,07518.26415,E,0.171,,081218,,,A*63
$GNRMC,000813.00,A,1309.34752,N,07518.26414,E,0.116,,081218,,,A*62
$GNRMC,000814.00,A,1309.34755,N,07518.26416,E,0.151,,081218,,,A*63
$GNRMC,000815.00,A,1309.34755,N,07518.26421,E,0.093,,081218,,,A*69
$GNRMC,000816.00,A,1309.34753,N,07518.26418,E,0.060,,081218,,,A*6A
$GNRMC,000817.00,A,1309.34751,N,07518.26416,E,0.033,,081218,,,A*61
$GNRMC,000818.00,A,1309.34748,N,07518.26411,E,0.105,,081218,,,A*65
$GNRMC,000819.00,A,1309.34743,N,07518.26405,E,0.102,,081218,,,A*6D
$GNRMC,000820.00,A,1309.34741,N,07518.26404,E,0.125,,081218,,,A*61
$GNRMC,000821.00,A,1309.34740,N,07518.26402,E,0.033,,081218,,,A*61
$GNRMC,000822.00,A,1309.34738,N,07518.26400,E,0.019,,081218,,,A*67
$GNRMC,000823.00,A,1309.34737,N,07518.26400,E,0.052,,081218,,,A*66
$GNRMC,000824.00,A,1309.34736,N,07518.26400,E,0.072,,081218,,,A*62
$GNRMC,000825.00,A,1309.34734,N,07518.26399,E,0.076,,081218,,,A*62
$GNRMC,000826.00,A,1309.34730,N,07518.26398,E,0.141,,081218,,,A*61
$GNRMC,000827.00,A,1309.34728,N,07518.26398,E,0.040,,081218,,,A*69
$GNRMC,000828.00,A,1309.34728,N,07518.26397,E,0.041,,081218,,,A*68
$GNRMC,000829.00,A,1309.34727,N,07518.26400,E,0.180,,081218,,,A*63
$GNRMC,000830.00,A,1309.34725,N,07518.26397,E,0.012,,081218,,,A*6A
$GNRMC,000831.00,A,1309.34723,N,07518.26391,E,0.025,,081218,,,A*6F
$GNRMC,000832.00,A,1309.34723,N,07518.26388,E,0.028,,081218,,,A*69
$GNRMC,000833.00,A,1309.34722,N,07518.26385,E,0.026,,081218,,,A*6A
$GNRMC,000834.00,A,1309.34721,N,07518.26383,E,0.046,,081218,,,A*6E
$GNRMC,000835.00,A,1309.34720,N,07518.26378,E,0.076,,081218,,,A*69
$GNRMC,000836.00,A,1309.34717,N,07518.26375,E,0.065,,081218,,,A*61
$GNRMC,000837.00,A,1309.34715,N,07518.26371,E,0.082,,081218,,,A*6F
$GNRMC,000838.00,A,1309.34713,N,07518.26368,E,0.056,,081218,,,A*67
$GNRMC,000839.00,A,1309.34710,N,07518.26367,E,0.011,,081218,,,A*69
$GNRMC,000840.00,A,1309.34707,N,07518.26364,E,0.094,,081218,,,A*6F
$GNRMC,000841.00,A,1309.34708,N,07518.26364,E,0.035,,081218,,,A*6A
$GNRMC,000842.00,A,1309.34708,N,07518.26367,E,0.046,,081218,,,A*6E
$GNRMC,000843.00,A,1309.34707,N,07518.26372,E,0.029,,081218,,,A*6D
$GNRMC,000844.00,A,1309.34706,N,07518.26372,E,0.014,,081218,,,A*65
$GNRMC,000845.00,A,1309.34705,N,07518.26372,E,0.026,,081218,,,A*66
$GNRMC,000846.00,A,1309.34704,N,07518.26373,E,0.072,,081218,,,A*64
$GNRMC,000847.00,A,1309.34703,N,07518.26376,E,0.076,,081218,,,A*63
$GNRMC,000848.00,A,1309.34705,N,07518.26378,E,0.050,,081218,,,A*60
$GNRMC,000849.00,A,1309.34706,N,07518.26381,E,0.027,,081218,,,A*64
$GNRMC,000850.00,A,1309.34707,N,07518.26381,E,0.033,,081218,,,A*68
$GNRMC,000851.00,A,1309.34707,N,07518.26382,E,0.229,,081218,,,A*63
$GNRMC,000852.00,A,1309.34708,N,07518.26389,E,0.094,,081218,,,A*60
$GNRMC,000853.00,A,1309.34709,N,07518.26388,E,0.041,,081218,,,A*69
$GNRMC,000854.00,A,1309.34709,N,07518.26390,E,0.051,,081218,,,A*66
$GNRMC,000855.00,A,1309.34708,N,07518.26393,E,0.049,,081218,,,A*6C
$GNRMC,000856.00,A,1309.34705,N,07518.26391,E,0.103,,081218,,,A*6F
$GNRMC,000857.00,A,1309.34702,N,07518.26393,E,0.151,,081218,,,A*6C
$GNRMC,000858.00,A,1309.34700,N,07518.26396,E,0.011,,081218,,,A*61
$GNRMC,000859.00,A,1309.34698,N,07518.26399,E,0.018,,081218,,,A*66
$GNRMC,000900.00,A,1309.34691,N,07518.26402,E,0.042,,081218,,,A*68
$GNRMC,000901.00,A,1309.34690,N,07518.26400,E,0.073,,081218,,,A*68
$GNRMC,000902.00,A,1309.34689,N,07518.26397,E,0.145,,081218,,,A*6E
$GNRMC,000903.00,A,1309.34688,N,07518.26389,E,0.072,,081218,,,A*64
$GNRMC,000904.00,A,1309.34685,N,07518.26384,E,0.047,,081218,,,A*65
$GNRMC,000905.00,A,1309.34680,N,07518.26385,E,0.131,,081218,,,A*60
$GNRMC,000906.00,A,1309.34678,N,07518.26377,E,0.012,,081218,,,A*69
$GNRMC,000907.00,A,1309.34676,N,07518.26374,E,0.122,,081218,,,A*67
$GNRMC,000908.00,A,1309.34675,N,07518.26372,E,0.104,,081218,,,A*69
$GNRMC,000909.00,A,1309.34674,N,07518.26367,E,0.046,,081218,,,A*6A
$GNRMC,000910.00,A,1309.34672,N,07518.26366,E,0.070,,081218,,,A*60
$GNRMC,000911.00,A,1309.34669,N,07518.26363,E,0.061,,081218,,,A*6E
$GNRMC,000912.00,A,1309.34665,N,07518.26361,E,0.072,,081218,,,A*61
$GNRMC,000913.00,A,1309.34659,N,07518.26362,E,0.103,,081218,,,A*6B
$GNRMC,000914.00,A,1309.34650,N,07518.26364,E,0.112,,081218,,,A*63
$GNRMC,000915.00,A,1309.34646,N,07518.26362,E,0.114,,081218,,,A*65
$GNRMC,000916.00,A,1309.34672,N,07518.26326,E,0.413,,081218,,,A*63
$GNRMC,000917.00,A,1309.34663,N,07518.26331,E,0.094,,081218,,,A*6F
$GNRMC,000918.00,A,1309.34657,N,07518.26327,E,0.059,,081218,,,A*61
$GNRMC,000919.00,A,1309.34651,N,07518.26320,E,0.100,,081218,,,A*6C
$GNRMC,000920.00,A,1309.34644,N,07518.26321,E,0.055,,081218,,,A*62
$GNRMC,000921.00,A,1309.34636,N,07518.26320,E,0.066,,081218,,,A*67
$GNRMC,000922.00,A,1309.34625,N,07518.26319,E,0.082,,081218,,,A*66
$GNRMC,000923.00,A,1309.34618,N,07518.26317,E,0.032,,081218,,,A*6C
$GNRMC,000924.00,A,1309.34610,N,07518.26317,E,0.020,,081218,,,A*60
$GNRMC,000925.00,A,1309.34603,N,07518.26317,E,0.040,,081218,,,A*65
$GNRMC,000926.00,A,1309.34595,N,07518.26318,E,0.031,,081218,,,A*63
$GNRMC,000927.00,A,1309.34586,N,07518.26321,E,0.013,,081218,,,A*6A
$GNRMC,000928.00,A,1309.34581,N,07518.26317,E,0.073,,081218,,,A*61
$GNRMC,000929.00,A,1309.34575,N,07518.26314,E,0.067,,081218,,,A*6D
$GNRMC,000930.00,A,1309.34571,N,07518.26311,E,0.026,,081218,,,A*61
$GNRMC,000931.00,A,1309.34566,N,07518.26313,E,0.012,,081218,,,A*63
$GNRMC,000932.00,A,1309.34559,N,07518.26316,E,0.061,,081218,,,A*6D
$GNRMC,000933.00,A,1309.34553,N,07518.26318,E,0.039,,081218,,,A*65
$GNRMC,000934.00,A,1309.34544,N,07518.26325,E,0.040,,081218,,,A*64
$GNRMC,000935.00,A,1309.34537,N,07518.26330,E,0.074,,081218,,,A*62
$GNRMC,000936.00,A,1309.34531,N,07518.26334,E,0.031,,081218,,,A*62
$GNRMC,000937.00,A,1309.34525,N,07518.26336,E,0.099,,081218,,,A*66
$GNRMC,000938.00,A,1309.34521,N,07518.26337,E,0.059,,081218,,,A*60
$GNRMC,000939.00,A,1309.34515,N,07518.26339,E,0.044,,081218,,,A*64
$GNRMC,000940.00,A,1309.34510,N,07518.26338,E,0.064,,081218,,,A*6C
$GNRMC,000941.00,A,1309.34505,N,07518.26339,E,0.040,,081218,,,A*6E
$GNRMC,000942.00,A,1309.34500,N,07518.26337,E,0.025,,081218,,,A*65
$GNRMC,000943.00,A,1309.34496,N,07518.26335,E,0.097,,081218,,,A*61
$GNRMC,000944.00,A,1309.34491,N,07518.26334,E,0.033,,081218,,,A*6E
$GNRMC,000945.00,A,1309.34489,N,07518.26332,E,0.069,,081218,,,A*6F
$GNRMC,000946.00,A,1309.34487,N,07518.26333,E,0.133,,081218,,,A*6D
$GNRMC,000947.00,A,1309.34485,N,07518.26336,E,0.055,,081218,,,A*6A
$GNRMC,000948.00,A,1309.34483,N,07518.26341,E,0.049,,081218,,,A*6E
$GNRMC,000949.00,A,1309.34481,N,07518.26344,E,0.079,,081218,,,A*6B
$GNRMC,000950.00,A,1309.34480,N,07518.26345,E,0.100,,081218,,,A*6C
$GNRMC,000951.00,A,1309.34479,N,07518.26348,E,0.155,,081218,,,A*66
$GNRMC,000952.00,A,1309.34479,N,07518.26349,E,0.032,,081218,,,A*64
$GNRMC,000953.00,A,1309.34479,N,07518.26349,E,0.009,,081218,,,A*6D
$GNRMC,000954.00,A,1309.34478,N,07518.26351,E,0.013,,081218,,,A*69
$GNRMC,000955.00,A,1309.34474,N,07518.26355,E,0.044,,081218,,,A*62
$GNRMC,000956.00,A,1309.34470,N,07518.26358,E,0.082,,081218,,,A*62
$GNRMC,000957.00,A,1309.34466,N,07518.26360,E,0.021,,081218,,,A*66
$GNRMC,000958.00,A,1309.34464,N,07518.26362,E,0.033,,081218,,,A*6A
$GNRMC,000959.00,A,1309.34461,N,07518.26363,E,0.029,,081218,,,A*64
$GNRMC,001000.00,A,1309.34460,N,07518.26362,E,0.022,,081218,,,A*6B
$GNRMC,001001.00,A,1309.34457,N,07518.26362,E,0.135,,081218,,,A*69
$GNRMC,001002.00,A,1309.34454,N,07518.26361,E,0.067,,081218,,,A*6C
$GNRMC,001003.00,A,1309.34454,N,07518.26356,E,0.012,,081218,,,A*6B
$GNRMC,001004.00,A,1309.34452,N,07518.26359,E,0.057,,081218,,,A*64
$GNRMC,001005.00,A,1309.34451,N,07518.26362,E,0.029,,081218,,,A*67
$GNRMC,001006.00,A,1309.34449,N,07518.26365,E,0.095,,081218,,,A*6D
$GNRMC,001007.00,A,1309.34448,N,07518.26365,E,0.059,,081218,,,A*6D
$GNRMC,001008.00,A,1309.34444,N,07518.26372,E,0.072,,081218,,,A*61
$GNRMC,001009.00,A,1309.34441,N,07518.26375,E,0.039,,081218,,,A*6D
$GNRMC,001010.00,A,1309.34438,N,07518.26379,E,0.027,,081218,,,A*68
$GNRMC,001011.00,A,1309.34436,N,07518.26383,E,0.031,,081218,,,A*65
$GNRMC,001012.00,A,1309.34433,N,07518.26386,E,0.050,,081218,,,A*61
$GNRMC,001013.00,A,1309.34429,N,07518.26390,E,0.010,,081218,,,A*68
$GNRMC,001014.00,A,1309.34428,N,07518.26392,E,0.031,,081218,,,A*6F
$GNRMC,001015.00,A,1309.34428,N,07518.26393,E,0.033,,081218,,,A*6D
$GNRMC,001016.00,A,1309.34427,N,07518.26393,E,0.017,,081218,,,A*67
$GNRMC,001017.00,A,1309.34425,N,07518.26393,E,0.069,,081218,,,A*6D
$GNRMC,001018.00,A,1309.34425,N,07518.26393,E,0.063,,081218,,,A*68
$GNRMC,001019.00,A,1309.34424,N,07518.26393,E,0.031,,081218,,,A*6F
$GNRMC,001020.00,A,1309.34425,N,07518.26393,E,0.081,,081218,,,A*6F
$GNRMC,001021.00,A,1309.34424,N,07518.26396,E,0.017,,081218,,,A*65
$GNRMC,001022.00,A,1309.34423,N,07518.26397,E,0.023,,081218,,,A*67
$GNRMC,001023.00,A,1309.34426,N,07518.26399,E,0.095,,081218,,,A*60
$GNRMC,001024.00,A,1309.34426,N,07518.26400,E,0.038,,081218,,,A*67
$GNRMC,001025.00,A,1309.34425,N,07518.26401,E,0.019,,081218,,,A*67
$GNRMC,001026.00,A,1309.34423,N,07518.26401,E,0.038,,081218,,,A*61
$GNRMC,001027.00,A,1309.34422,N,07518.26401,E,0.008,,081218,,,A*62
$GNRMC,001028.00,A,1309.34420,N,07518.26402,E,0.032,,081218,,,A*65
$GNRMC,001029.00,A,1309.34418,N,07518.26402,E,0.055,,081218,,,A*6E
$GNRMC,001030.00,A,1309.34416,N,07518.26402,E,0.053,,081218,,,A*6E
$GNRMC,001031.00,A,1309.34417,N,07518.26404,E,0.032,,081218,,,A*6F
$GNRMC,001032.00,A,1309.34416,N,07518.26403,E,0.019,,081218,,,A*63
$GNRMC,001033.00,A,1309.34415,N,07518.26404,E,0.014,,081218,,,A*6B
$GNRMC,001034.00,A,1309.34410,N,07518.26405,E,0.108,,081218,,,A*64
$GNRMC,001035.00,A,1309.34406,N,07518.26409,E,0.077,,081218,,,A*67
$GNRMC,001036.00,A,1309.34404,N,07518.26408,E,0.026,,081218,,,A*63
$GNRMC,001037.00,A,1309.34404,N,07518.26404,E,0.024,,081218,,,A*6C
$GNRMC,001038.00,A,1309.34403,N,07518.26404,E,0.047,,081218,,,A*61
$GNRMC,001039.00,A,1309.34401,N,07518.26403,E,0.024,,081218,,,A*60
$GNRMC,001040.00,A,1309.34402,N,07518.26401,E,0.050,,081218,,,A*6C
$GNRMC,001041.00,A,1309.34401,N,07518.26403,E,0.040,,081218,,,A*6D
$GNRMC,001042.00,A,1309.34397,N,07518.26403,E,0.042,,081218,,,A*64
$GNRMC,001043.00,A,1309.34393,N,07518.26405,E,0.004,,081218,,,A*65
$GNRMC,001044.00,A,1309.34395,N,07518.26403,E,0.024,,081218,,,A*60
$GNRMC,001045.00,A,1309.34396,N,07518.26400,E,0.102,,081218,,,A*64
$GNRMC,001046.00,A,1309.34392,N,07518.26400,E,0.053,,081218,,,A*66
$GNRMC,001047.00,A,1309.34389,N,07518.26400,E,0.026,,081218,,,A*6F
$GNRMC,001048.00,A,1309.34385,N,07518.26401,E,0.037,,081218,,,A*6D
$GNRMC,001049.00,A,1309.34385,N,07518.26399,E,0.034,,081218,,,A*69
$GNRMC,001050.00,A,1309.34385,N,07518.26401,E,0.117,,081218,,,A*67
$GNRMC,001051.00,A,1309.34387,N,07518.26397,E,0.045,,081218,,,A*6A
$GNRMC,001052.00,A,1309.34389,N,07518.26397,E,0.009,,081218,,,A*6F
$GNRMC,001053.00,A,1309.34391,N,07518.26393,E,0.038,,081218,,,A*61
$GNRMC,001054.00,A,1309.34393,N,07518.26390,E,0.021,,081218,,,A*6F
$GNRMC,001055.00,A,1309.34390,N,07518.26391,E,0.020,,081218,,,A*6D
$GNRMC,001056.00,A,1309.34392,N,07518.26386,E,0.117,,081218,,,A*6F
$GNRMC,001057.00,A,1309.34393,N,07518.26384,E,0.033,,081218,,,A*6A
$GNRMC,001058.00,A,1309.34395,N,07518.26386,E,0.045,,081218,,,A*60
$GNRMC,001059.00,A,1309.34397,N,07518.26385,E,0.102,,081218,,,A*62
$GNRMC,001100.00,A,1309.34399,N,07518.26389,E,0.021,,081218,,,A*6D
$GNRMC,001101.00,A,1309.34400,N,07518.26394,E,0.082,,081218,,,A*6E
$GNRMC,001102.00,A,1309.34401,N,07518.26397,E,0.039,,081218,,,A*6F
$GNRMC,001103.00,A,1309.34401,N,07518.26399,E,0.034,,081218,,,A*6D
$GNRMC,001104.00,A,1309.34401,N,07518.26402,E,0.047,,081218,,,A*6B
$GNRMC,001105.00,A,1309.34401,N,07518.26404,E,0.051,,081218,,,A*6B
$GNRMC,001106.00,A,1309.34403,N,07518.26406,E,0.013,,081218,,,A*6E
$GNRMC,001107.00,A,1309.34406,N,07518.26410,E,0.028,,081218,,,A*65
$GNRMC,001108.00,A,1309.34409,N,07518.26417,E,0.149,,081218,,,A*64
$GNRMC,001109.00,A,1309.34413,N,07518.26419,E,0.039,,081218,,,A*66
$GNRMC,001110.00,A,1309.34417,N,07518.26419,E,0.059,,081218,,,A*6C
$GNRMC,001111.00,A,1309.34420,N,07518.26421,E,0.023,,081218,,,A*6F
$GNRMC,001112.00,A,1309.34423,N,07518.26422,E,0.033,,081218,,,A*6D
$GNRMC,001113.00,A,1309.34425,N,07518.26424,E,0.031,,081218,,,A*6E
$GNRMC,001114.00,A,1309.34429,N,07518.26423,E,0.066,,081218,,,A*60
$GNRMC,001115.00,A,1309.34432,N,07518.26425,E,0.054,,081218,,,A*6C
$GNRMC,001116.00,A,1309.34437,N,07518.26425,E,0.035,,081218,,,A*6D
$GNRMC,001117.00,A,1309.34442,N,07518.26422,E,0.053,,081218,,,A*69
$GNRMC,001118.00,A,1309.34446,N,07518.26420,E,0.026,,081218,,,A*62
$GNRMC,001119.00,A,1309.34450,N,07518.26419,E,0.076,,081218,,,A*6B
$GNRMC,001120.00,A,1309.34453,N,07518.26416,E,0.021,,081218,,,A*6F
$GNRMC,001121.00,A,1309.34456,N,07518.26414,E,0.078,,081218,,,A*65
$GNRMC,001122.00,A,1309.34460,N,07518.26412,E,0.091,,081218,,,A*62
$GNRMC,001123.00,A,1309.34463,N,07518.26411,E,0.049,,081218,,,A*66
$GNRMC,001124.00,A,1309.34463,N,07518.26408,E,0.047,,081218,,,A*67
$GNRMC,001125.00,A,1309.34464,N,07518.26405,E,0.068,,081218,,,A*61
$GNRMC,001126.00,A,1309.34463,N,07518.26401,E,0.052,,081218,,,A*68
$GNRMC,001127.00,A,1309.34461,N,07518.26403,E,0.063,,081218,,,A*6B
$GNRMC,001128.00,A,1309.34458,N,07518.26405,E,0.099,,081218,,,A*6D
$GNRMC,001129.00,A,1309.34457,N,07518.26405,E,0.042,,081218,,,A*65
$GNRMC,001130.00,A,1309.34453,N,07518.26411,E,0.039,,081218,,,A*60
$GNRMC,001131.00,A,1309.34452,N,07518.26416,E,0.023,,081218,,,A*6C
$GNRMC,001132.00,A,1309.34450,N,07518.26423,E,0.031,,081218,,,A*68
$GNRMC,001133.00,A,1309.34446,N,07518.26431,E,0.025,,081218,,,A*68
$GNRMC,001134.00,A,1309.34445,N,07518.26436,E,0.080,,081218,,,A*64
$GNRMC,001135.00,A,1309.34444,N,07518.26437,E,0.062,,081218,,,A*69
$GNRMC,001136.00,A,1309.34444,N,07518.26439,E,0.043,,081218,,,A*67
$GNRMC,001137.00,A,1309.34443,N,07518.26443,E,0.020,,081218,,,A*69
$GNRMC,001138.00,A,1309.34441,N,07518.26443,E,0.058,,081218,,,A*6B
$GNRMC,001139.00,A,1309.34438,N,07518.26441,E,0.070,,081218,,,A*6C
$GNRMC,001140.00,A,1309.34436,N,07518.26438,E,0.064,,081218,,,A*67
$GNRMC,001141.00,A,1309.34434,N,07518.26438,E,0.010,,081218,,,A*67
$GNRMC,001142.00,A,1309.34433,N,07518.26439,E,0.043,,081218,,,A*64
$GNRMC,001143.00,A,1309.34432,N,07518.26439,E,0.005,,081218,,,A*66
$GNRMC,001144.00,A,1309.34431,N,07518.26437,E,0.062,,081218,,,A*6D
$GNRMC,001145.00,A,1309.34430,N,07518.26435,E,0.024,,081218,,,A*6D
$GNRMC,001146.00,A,1309.34428,N,07518.26434,E,0.047,,081218,,,A*63
$GNRMC,001147.00,A,1309.34427,N,07518.26434,E,0.027,,081218,,,A*6B
$GNRMC,001148.00,A,1309.34425,N,07518.26438,E,0.080,,081218,,,A*67
$GNRMC,001149.00,A,1309.34421,N,07518.26445,E,0.023,,081218,,,A*61
$GNRMC,001150.00,A,1309.34417,N,07518.26449,E,0.060,,081218,,,A*67
$GNRMC,001151.00,A,1309.34412,N,07518.26454,E,0.021,,081218,,,A*6A
$GNRMC,001152.00,A,1309.34410,N,07518.26458,E,0.133,,081218,,,A*65
$GNRMC,001153.00,A,1309.34407,N,07518.26463,E,0.082,,081218,,,A*61
$GNRMC,001154.00,A,1309.34406,N,07518.26467,E,0.015,,081218,,,A*6D
$GNRMC,001155.00,A,1309.34403,N,07518.26470,E,0.031,,081218,,,A*69
$GNRMC,001156.00,A,1309.34402,N,07518.26471,E,0.048,,081218,,,A*64
$GNRMC,001157.00,A,1309.34402,N,07518.26474,E,0.014,,081218,,,A*69
$GNRMC,001158.00,A,1309.34401,N,07518.26476,E,0.096,,081218,,,A*6D
$GNRMC,001159.00,A,1309.34402,N,07518.26478,E,0.005,,081218,,,A*6B
$GNRMC,001200.00,A,1309.34401,N,07518.26485,E,0.053,,081218,,,A*66
$GNRMC,001201.00,A,1309.34401,N,07518.26488,E,0.051,,081218,,,A*68
$GNRMC,001202.00,A,1309.34401,N,07518.26488,E,0.025,,081218,,,A*68
$GNRMC,001203.00,A,1309.34402,N,07518.26489,E,0.015,,081218,,,A*68
$GNRMC,001204.00,A,1309.34400,N,07518.26494,E,0.086,,081218,,,A*6B
$GNRMC,001205.00,A,1309.34405,N,07518.26495,E,0.028,,081218,,,A*6A
$GNRMC,001206.00,A,1309.34408,N,07518.26498,E,0.037,,081218,,,A*67
$GNRMC,001207.00,A,1309.34405,N,07518.26502,E,0.073,,081218,,,A*69
$GNRMC,001208.00,A,1309.34404,N,07518.26504,E,0.031,,081218,,,A*67
$GNRMC,001209.00,A,1309.34405,N,07518.26503,E,0.045,,081218,,,A*63
$GNRMC,001210.00,A,1309.34404,N,07518.26505,E,0.076,,081218,,,A*6C
$GNRMC,001211.00,A,1309.34403,N,07518.26506,E,0.019,,081218,,,A*60
$GNRMC,001212.00,A,1309.34401,N,07518.26504,E,0.015,,081218,,,A*6F
$GNRMC,001213.00,A,1309.34399,N,07518.26503,E,0.021,,081218,,,A*68
$GNRMC,001214.00,A,1309.34397,N,07518.26504,E,0.023,,081218,,,A*64
$GNRMC,001215.00,A,1309.34396,N,07518.26505,E,0.032,,081218,,,A*65
$GNRMC,001216.00,A,1309.34395,N,07518.26504,E,0.034,,081218,,,A*62
$GNRMC,001217.00,A,1309.34394,N,07518.26504,E,0.074,,081218,,,A*66
$GNRMC,001218.00,A,1309.34393,N,07518.26504,E,0.019,,081218,,,A*65
$GNRMC,001219.00,A,1309.34392,N,07518.26504,E,0.034,,081218,,,A*6A
$GNRMC,001220.00,A,1309.34391,N,07518.26505,E,0.038,,081218,,,A*6E
$GNRMC,001221.00,A,1309.34390,N,07518.26503,E,0.046,,081218,,,A*61
$GNRMC,001222.00,A,1309.34389,N,07518.26502,E,0.025,,081218,,,A*6E
$GNRMC,001223.00,A,1309.34392,N,07518.26497,E,0.048,,081218,,,A*63
$GNRMC,001224.00,A,1309.34396,N,07518.26493,E,0.045,,081218,,,A*69
$GNRMC,001225.00,A,1309.34397,N,07518.26493,E,0.037,,081218,,,A*6C
$GNRMC,001226.00,A,1309.34399,N,07518.26492,E,0.048,,081218,,,A*68
$GNRMC,001227.00,A,1309.34402,N,07518.26493,E,0.013,,081218,,,A*63
$GNRMC,001228.00,A,1309.34404,N,07518.26491,E,0.056,,081218,,,A*69
$GNRMC,001229.00,A,1309.34404,N,07518.26491,E,0.012,,081218,,,A*68
$GNRMC,001230.00,A,1309.34405,N,07518.26490,E,0.043,,081218,,,A*64
$GNRMC,001231.00,A,1309.34405,N,07518.26490,E,0.040,,081218,,,A*66
$GNRMC,001232.00,A,1309.34408,N,07518.26490,E,0.016,,081218,,,A*6B
$GNRMC,001233.00,A,1309.34410,N,07518.26492,E,0.032,,081218,,,A*67
$GNRMC,001234.00,A,1309.34412,N,07518.26499,E,0.029,,081218,,,A*63
$GNRMC,001235.00,A,1309.34411,N,07518.26502,E,0.047,,081218,,,A*6A
$GNRMC,001236.00,A,1309.34412,N,07518.26506,E,0.041,,081218,,,A*68
$GNRMC,001237.00,A,1309.34412,N,07518.26506,E,0.023,,081218,,,A*6D
$GNRMC,001238.00,A,1309.34414,N,07518.26504,E,0.006,,081218,,,A*61
$GNRMC,001239.00,A,1309.34416,N,07518.26502,E,0.038,,081218,,,A*69
$GNRMC,001240.00,A,1309.34417,N,07518.26499,E,0.046,,081218,,,A*6C
$GNRMC,001241.00,A,1309.34417,N,07518.26499,E,0.021,,081218,,,A*6C
$GNRMC,001242.00,A,1309.34419,N,07518.26497,E,0.030,,081218,,,A*6F
$GNRMC,001243.00,A,1309.34422,N,07518.26495,E,0.048,,081218,,,A*6B
$GNRMC,001244.00,A,1309.34423,N,07518.26495,E,0.061,,081218,,,A*66
$GNRMC,001245.00,A,1309.34424,N,07518.26492,E,0.015,,081218,,,A*64
$GNRMC,001246.00,A,1309.34423,N,07518.26489,E,0.020,,081218,,,A*6C
$GNRMC,001247.00,A,1309.34422,N,07518.26489,E,0.035,,081218,,,A*68
$GNRMC,001248.00,A,1309.34421,N,07518.26485,E,0.012,,081218,,,A*6D
$GNRMC,001249.00,A,1309.34421,N,07518.26481,E,0.064,,081218,,,A*69
$GNRMC,001250.00,A,1309.34422,N,07518.26478,E,0.064,,081218,,,A*64
$GNRMC,001251.00,A,1309.34423,N,07518.26475,E,0.031,,081218,,,A*69
$GNRMC,001252.00,A,1309.34423,N,07518.26470,E,0.063,,081218,,,A*68
$GNRMC,001253.00,A,1309.34423,N,07518.26463,E,0.043,,081218,,,A*69
$GNRMC,001254.00,A,1309.34423,N,07518.26455,E,0.044,,081218,,,A*6C
$GNRMC,001255.00,A,1309.34422,N,07518.26451,E,0.133,,081218,,,A*69
$GNRMC,001256.00,A,1309.34419,N,07518.26438,E,0.014,,081218,,,A*69
$GNRMC,001257.00,A,1309.34419,N,07518.26425,E,0.049,,081218,,,A*6C
$GNRMC,001258.00,A,1309.34419,N,07518.26416,E,0.028,,081218,,,A*64
$GNRMC,001259.00,A,1309.34418,N,07518.26413,E,0.034,,081218,,,A*6C
$GNRMC,001300.00,A,1309.34418,N,07518.26410,E,0.047,,081218,,,A*66
$GNRMC,001301.00,A,1309.34416,N,07518.26401,E,0.024,,081218,,,A*6C
$GNRMC,001302.00,A,1309.34413,N,07518.26393,E,0.024,,081218,,,A*66
$GNRMC,001303.00,A,1309.34412,N,07518.26380,E,0.061,,081218,,,A*65
$GNRMC,001304.00,A,1309.34410,N,07518.26369,E,0.055,,081218,,,A*60
$GNRMC,001305.00,A,1309.34408,N,07518.26361,E,0.128,,081218,,,A*6B
$GNRMC,001306.00,A,1309.34408,N,07518.26352,E,0.038,,081218,,,A*68
$GNRMC,001307.00,A,1309.34410,N,07518.26346,E,0.096,,081218,,,A*61
$GNRMC,001308.00,A,1309.34413,N,07518.26341,E,0.025,,081218,,,A*62
$GNRMC,001309.00,A,1309.34417,N,07518.26333,E,0.122,,081218,,,A*64
$GNRMC,001310.00,A,1309.34422,N,07518.26324,E,0.019,,081218,,,A*65
$GNRMC,001311.00,A,1309.34422,N,07518.26319,E,0.014,,081218,,,A*67
$GNRMC,001312.00,A,1309.34427,N,07518.26315,E,0.008,,081218,,,A*60
$GNRMC,001313.00,A,1309.34432,N,07518.26314,E,0.054,,081218,,,A*6D
$GNRMC,001314.00,A,1309.34436,N,07518.26313,E,0.020,,081218,,,A*6A
$GNRMC,001315.00,A,1309.34439,N,07518.26314,E,0.034,,081218,,,A*66
$GNRMC,001316.00,A,1309.34442,N,07518.26316,E,0.004,,081218,,,A*68
$GNRMC,001317.00,A,1309.34444,N,07518.26319,E,0.020,,081218,,,A*66
$GNRMC,001318.00,A,1309.34446,N,07518.26322,E,0.025,,081218,,,A*66
$GNRMC,001319.00,A,1309.34448,N,07518.26327,E,0.042,,081218,,,A*6D
$GNRMC,001320.00,A,1309.34449,N,07518.26329,E,0.013,,081218,,,A*6C
$GNRMC,001321.00,A,1309.34450,N,07518.26331,E,0.027,,081218,,,A*6B
$GNRMC,001322.00,A,1309.34450,N,07518.26332,E,0.040,,081218,,,A*6A
$GNRMC,001323.00,A,1309.34452,N,07518.26333,E,0.037,,081218,,,A*68
$GNRMC,001324.00,A,1309.34453,N,07518.26335,E,0.021,,081218,,,A*6F
$GNRMC,001325.00,A,1309.34453,N,07518.26337,E,0.063,,081218,,,A*6A
$GNRMC,001326.00,A,1309.34455,N,07518.26339,E,0.016,,081218,,,A*63
$GNRMC,001327.00,A,1309.34456,N,07518.26339,E,0.023,,081218,,,A*67
$GNRMC,001328.00,A,1309.34456,N,07518.26342,E,0.070,,081218,,,A*62
$GNRMC,001329.00,A,1309.34456,N,07518.26346,E,0.050,,081218,,,A*65
$GNRMC,001330.00,A,1309.34457,N,07518.26349,E,0.024,,081218,,,A*60
$GNRMC,001331.00,A,1309.34460,N,07518.26351,E,0.029,,081218,,,A*61
$GNRMC,001332.00,A,1309.34461,N,07518.26356,E,0.046,,081218,,,A*6D
$GNRMC,001333.00,A,1309.34463,N,07518.26361,E,0.034,,081218,,,A*6F
$GNRMC,001334.00,A,1309.34464,N,07518.26364,E,0.022,,081218,,,A*6D
$GNRMC,001335.00,A,1309.34466,N,07518.26366,E,0.024,,081218,,,A*6A
$GNRMC,001336.00,A,1309.34468,N,07518.26366,E,0.035,,081218,,,A*67
$GNRMC,001337.00,A,1309.34471,N,07518.26367,E,0.011,,081218,,,A*69
$GNRMC,001338.00,A,1309.34474,N,07518.26369,E,0.070,,081218,,,A*6A
$GNRMC,001339.00,A,1309.34477,N,07518.26371,E,0.048,,081218,,,A*6A
$GNRMC,001340.00,A,1309.34479,N,07518.26375,E,0.094,,081218,,,A*6F
$GNRMC,001341.00,A,1309.34482,N,07518.26379,E,0.034,,081218,,,A*6C
$GNRMC,001342.00,A,1309.34483,N,07518.26384,E,0.032,,081218,,,A*6A
$GNRMC,001343.00,A,1309.34486,N,07518.26388,E,0.024,,081218,,,A*65
$GNRMC,001344.00,A,1309.34488,N,07518.26393,E,0.007,,081218,,,A*67
$GNRMC,001345.00,A,1309.34491,N,07518.26396,E,0.018,,081218,,,A*65
$GNRMC,001346.00,A,1309.34494,N,07518.26399,E,0.023,,081218,,,A*64
$GNRMC,001347.00,A,1309.34497,N,07518.26402,E,0.039,,081218,,,A*68
$GNRMC,001348.00,A,1309.34499,N,07518.26405,E,0.012,,081218,,,A*67
$GNRMC,001349.00,A,1309.34502,N,07518.26409,E,0.044,,081218,,,A*6A
$GNRMC,001350.00,A,1309.34502,N,07518.26414,E,0.091,,081218,,,A*66
$GNRMC,001351.00,A,1309.34505,N,07518.26415,E,0.025,,081218,,,A*6E
$GNRMC,001352.00,A,1309.34509,N,07518.26416,E,0.015,,081218,,,A*61
$GNRMC,001353.00,A,1309.34513,N,07518.26418,E,0.046,,081218,,,A*63
$GNRMC,001354.00,A,1309.34516,N,07518.26424,E,0.022,,081218,,,A*6C
$GNRMC,001355.00,A,1309.34515,N,07518.26430,E,0.060,,081218,,,A*6D